/* eslint-disable */
[
    {
        "name": "Wonju-si",
        "coordinates": {
            "latitude": 37.342220,
            "longitude": 127.920158
        }
    },
    {
        "name": "Pyeongtaek-si",
        "coordinates": {
            "latitude": 36.992107,
            "longitude": 127.112946
        }
    },
    {
        "name": "Gangnam-gu",
        "coordinates": {
            "latitude": 37.517235,
            "longitude": 127.047325
        }
    },
    {
        "name": "Guri",
        "coordinates": {
            "latitude": 37.603405,
            "longitude": 127.143738
        }
    },
    {
        "name": "Incheon",
        "coordinates": {
            "latitude": 37.456257,
            "longitude": 126.705208
        }
    },
    {
        "name": "Pocheon-si",
        "coordinates": {
            "latitude": 37.894917,
            "longitude": 127.200356
        }
    },
    {
        "name": "Namyangju-si",
        "coordinates": {
            "latitude": 37.636002,
            "longitude": 127.216530
        }
    },
    {
        "name": "Tongyeong-si",
        "coordinates": {
            "latitude": 34.855228,
            "longitude": 128.429581
        }
    },
    {
        "name": "Paju",
        "coordinates": {
            "latitude": 37.764744,
            "longitude": 126.787376
        }
    },
    {
        "name": "Seoul",
        "coordinates": {
            "latitude": 37.532600,
            "longitude": 127.024612
        }
    },
    {
        "name": "Seyung-po",
        "coordinates": {
            "latitude": 34.992107,
            "longitude": 127.112946
        }
    }
]

/*강원도
경기도
경상남도
경상북도
광주광역시
대구광역시
대전광역시
부산광역시
서울특별시
세종특별자치시
울산광역시
인천광역시
전라남도
전라북도
제주특별자치도
충청남도
충청북도*/
